[
  {
    "name": "Matt Germaine",
    "attended": true,
    "is_officiant": false,
    "in_wedding_party": true,
    "is_groom": true,
    "is_bride": false,
    "inviter": "Germaine",
    "latitude": "40.438918",
    "longitude": "-79.89294"
  },
  {
    "name": "Meredith Eyre",
    "attended": true,
    "is_officiant": false,
    "in_wedding_party": true,
    "is_groom": false,
    "is_bride": true,
    "inviter": "Germaine",
    "latitude": "40.438918",
    "longitude": "-79.89294"
  },
  {
    "name": "John Eyre",
    "attended": true,
    "is_officiant": false,
    "in_wedding_party": false,
    "is_groom": false,
    "is_bride": false,
    "inviter": "Germaine",
    "latitude": "41.449996",
    "longitude": "-81.933406"
  },
  {
    "name": "Lee Ann Eyre",
    "attended": true,
    "is_officiant": false,
    "in_wedding_party": false,
    "is_groom": false,
    "is_bride": false,
    "inviter": "Germaine",
    "latitude": "41.449996",
    "longitude": "-81.933406"
  },
  {
    "name": "Peter Eyre",
    "attended": true,
    "is_officiant": false,
    "in_wedding_party": true,
    "is_groom": false,
    "is_bride": false,
    "inviter": "Germaine",
    "latitude": "33.75808",
    "longitude": "-118.127501"
  },
  {
    "name": "Jack Eyre",
    "attended": true,
    "is_officiant": false,
    "in_wedding_party": true,
    "is_groom": false,
    "is_bride": false,
    "inviter": "Germaine",
    "latitude": "36.173032",
    "longitude": "-86.781703"
  },
  {
    "name": "Annie Hornung",
    "attended": true,
    "is_officiant": false,
    "in_wedding_party": false,
    "is_groom": false,
    "is_bride": false,
    "inviter": "Germaine",
    "latitude": "36.173032",
    "longitude": "-86.781703"
  },
  {
    "name": "Morgan Jenkins",
    "attended": true,
    "is_officiant": false,
    "in_wedding_party": false,
    "is_groom": false,
    "is_bride": false,
    "inviter": "Germaine",
    "latitude": "33.425427",
    "longitude": "-117.618038"
  },
  {
    "name": "Patricia Eyre",
    "attended": true,
    "is_officiant": false,
    "in_wedding_party": false,
    "is_groom": false,
    "is_bride": false,
    "inviter": "Germaine",
    "latitude": "41.143255",
    "longitude": "-81.505245"
  },
  {
    "name": "Joseph Eyre",
    "attended": true,
    "is_officiant": false,
    "in_wedding_party": false,
    "is_groom": false,
    "is_bride": false,
    "inviter": "Germaine",
    "latitude": "37.381187",
    "longitude": "-122.104914"
  },
  {
    "name": "Terri Eyre",
    "attended": true,
    "is_officiant": false,
    "in_wedding_party": false,
    "is_groom": false,
    "is_bride": false,
    "inviter": "Germaine",
    "latitude": "37.381187",
    "longitude": "-122.104914"
  },
  {
    "name": "Nick Eyre",
    "attended": true,
    "is_officiant": false,
    "in_wedding_party": false,
    "is_groom": false,
    "is_bride": false,
    "inviter": "Germaine",
    "latitude": "37.484539",
    "longitude": "-122.198622"
  },
  {
    "name": "Stephanie Eyre",
    "attended": false,
    "is_officiant": false,
    "in_wedding_party": false,
    "is_groom": false,
    "is_bride": false,
    "inviter": "Germaine",
    "latitude": "37.838099",
    "longitude": "-122.249716"
  },
  {
    "name": "James Eyre",
    "attended": true,
    "is_officiant": false,
    "in_wedding_party": false,
    "is_groom": false,
    "is_bride": false,
    "inviter": "Germaine",
    "latitude": "33.944461",
    "longitude": "-84.210969"
  },
  {
    "name": "Paula Volino",
    "attended": true,
    "is_officiant": false,
    "in_wedding_party": false,
    "is_groom": false,
    "is_bride": false,
    "inviter": "Germaine",
    "latitude": "33.944461",
    "longitude": "-84.210969"
  },
  {
    "name": "Patrick Eyre",
    "attended": true,
    "is_officiant": false,
    "in_wedding_party": false,
    "is_groom": false,
    "is_bride": false,
    "inviter": "Germaine",
    "latitude": "29.469866",
    "longitude": "-98.377344"
  },
  {
    "name": "Katie Volino",
    "attended": true,
    "is_officiant": false,
    "in_wedding_party": false,
    "is_groom": false,
    "is_bride": false,
    "inviter": "Germaine",
    "latitude": "33.804845",
    "longitude": "-84.264028"
  },
  {
    "name": "Jeffrey Eyre",
    "attended": true,
    "is_officiant": false,
    "in_wedding_party": false,
    "is_groom": false,
    "is_bride": false,
    "inviter": "Germaine",
    "latitude": "35.799064",
    "longitude": "-81.324618"
  },
  {
    "name": "Linda Eyre",
    "attended": true,
    "is_officiant": false,
    "in_wedding_party": false,
    "is_groom": false,
    "is_bride": false,
    "inviter": "Germaine",
    "latitude": "35.799064",
    "longitude": "-81.324618"
  },
  {
    "name": "Allyson Avila",
    "attended": true,
    "is_officiant": false,
    "in_wedding_party": false,
    "is_groom": false,
    "is_bride": false,
    "inviter": "Germaine",
    "latitude": "35.799064",
    "longitude": "-81.324618"
  },
  {
    "name": "Glen Fitzjerrell",
    "attended": false,
    "is_officiant": false,
    "in_wedding_party": false,
    "is_groom": false,
    "is_bride": false,
    "inviter": "Germaine",
    "latitude": "41.860179",
    "longitude": "-87.806721"
  },
  {
    "name": "Jane Fitzjerrell",
    "attended": true,
    "is_officiant": false,
    "in_wedding_party": false,
    "is_groom": false,
    "is_bride": false,
    "inviter": "Germaine",
    "latitude": "41.860179",
    "longitude": "-87.806721"
  },
  {
    "name": "Barbara Everett",
    "attended": false,
    "is_officiant": false,
    "in_wedding_party": false,
    "is_groom": false,
    "is_bride": false,
    "inviter": "Germaine",
    "latitude": "37.321326",
    "longitude": "-79.943385"
  },
  {
    "name": "Richard Eyre",
    "attended": false,
    "is_officiant": false,
    "in_wedding_party": false,
    "is_groom": false,
    "is_bride": false,
    "inviter": "Germaine",
    "latitude": "41.121477",
    "longitude": "-81.448117"
  },
  {
    "name": "Cara Eyre",
    "attended": false,
    "is_officiant": false,
    "in_wedding_party": false,
    "is_groom": false,
    "is_bride": false,
    "inviter": "Germaine",
    "latitude": "41.860179",
    "longitude": "-87.806721"
  },
  {
    "name": "Trish Rucker",
    "attended": true,
    "is_officiant": false,
    "in_wedding_party": false,
    "is_groom": false,
    "is_bride": false,
    "inviter": "Germaine",
    "latitude": "41.034336",
    "longitude": "-81.393071"
  },
  {
    "name": "Ms. Carolyn Naso",
    "attended": false,
    "is_officiant": false,
    "in_wedding_party": false,
    "is_groom": false,
    "is_bride": false,
    "inviter": "Germaine",
    "latitude": "40.931661",
    "longitude": "-81.341082"
  },
  {
    "name": "Rich Eyre",
    "attended": false,
    "is_officiant": false,
    "in_wedding_party": false,
    "is_groom": false,
    "is_bride": false,
    "inviter": "Germaine",
    "latitude": "41.085152",
    "longitude": "-81.405818"
  },
  {
    "name": "Kathy Eyre",
    "attended": false,
    "is_officiant": false,
    "in_wedding_party": false,
    "is_groom": false,
    "is_bride": false,
    "inviter": "Germaine",
    "latitude": "41.085152",
    "longitude": "-81.405818"
  },
  {
    "name": "Michael Bloom",
    "attended": false,
    "is_officiant": false,
    "in_wedding_party": false,
    "is_groom": false,
    "is_bride": false,
    "inviter": "Germaine",
    "latitude": "40.951448",
    "longitude": "-81.3876"
  },
  {
    "name": "Anela Bloom",
    "attended": false,
    "is_officiant": false,
    "in_wedding_party": false,
    "is_groom": false,
    "is_bride": false,
    "inviter": "Germaine",
    "latitude": "40.951448",
    "longitude": "-81.3876"
  },
  {
    "name": "Mr. Shane Stewart",
    "attended": false,
    "is_officiant": false,
    "in_wedding_party": false,
    "is_groom": false,
    "is_bride": false,
    "inviter": "Germaine",
    "latitude": "36.395295",
    "longitude": "-82.524019"
  },
  {
    "name": "Mrs. Shane Stewart",
    "attended": false,
    "is_officiant": false,
    "in_wedding_party": false,
    "is_groom": false,
    "is_bride": false,
    "inviter": "Germaine",
    "latitude": "36.395295",
    "longitude": "-82.524019"
  },
  {
    "name": "Wayne Koide",
    "attended": false,
    "is_officiant": false,
    "in_wedding_party": false,
    "is_groom": false,
    "is_bride": false,
    "inviter": "Germaine",
    "latitude": "37.909767",
    "longitude": "-122.381799"
  },
  {
    "name": "Susan Koide",
    "attended": false,
    "is_officiant": false,
    "in_wedding_party": false,
    "is_groom": false,
    "is_bride": false,
    "inviter": "Germaine",
    "latitude": "37.909767",
    "longitude": "-122.381799"
  },
  {
    "name": "Janet Sheffler",
    "attended": true,
    "is_officiant": false,
    "in_wedding_party": false,
    "is_groom": false,
    "is_bride": false,
    "inviter": "Germaine",
    "latitude": "41.466473",
    "longitude": "-81.837309"
  },
  {
    "name": "Lynne Megerian",
    "attended": true,
    "is_officiant": false,
    "in_wedding_party": false,
    "is_groom": false,
    "is_bride": false,
    "inviter": "Germaine",
    "latitude": "41.48066",
    "longitude": "-81.512693"
  },
  {
    "name": "Cliff Megerian",
    "attended": true,
    "is_officiant": false,
    "in_wedding_party": false,
    "is_groom": false,
    "is_bride": false,
    "inviter": "Germaine",
    "latitude": "41.48066",
    "longitude": "-81.512693"
  },
  {
    "name": "Caroline Megerian",
    "attended": true,
    "is_officiant": false,
    "in_wedding_party": true,
    "is_groom": false,
    "is_bride": false,
    "inviter": "Germaine",
    "latitude": "41.48066",
    "longitude": "-81.512693"
  },
  {
    "name": "Andrew Megerian",
    "attended": true,
    "is_officiant": false,
    "in_wedding_party": false,
    "is_groom": false,
    "is_bride": false,
    "inviter": "Germaine",
    "latitude": "40.761885",
    "longitude": "-73.985413"
  },
  {
    "name": "Mark Megerian",
    "attended": true,
    "is_officiant": false,
    "in_wedding_party": false,
    "is_groom": false,
    "is_bride": false,
    "inviter": "Germaine",
    "latitude": "41.497582",
    "longitude": "-81.596917"
  },
  {
    "name": "Tom McClave",
    "attended": true,
    "is_officiant": false,
    "in_wedding_party": false,
    "is_groom": false,
    "is_bride": false,
    "inviter": "Germaine",
    "latitude": "41.540836",
    "longitude": "-81.42802"
  },
  {
    "name": "Mrs. McClave",
    "attended": true,
    "is_officiant": false,
    "in_wedding_party": false,
    "is_groom": false,
    "is_bride": false,
    "inviter": "Germaine",
    "latitude": "41.540836",
    "longitude": "-81.42802"
  },
  {
    "name": "Michael McClave",
    "attended": true,
    "is_officiant": false,
    "in_wedding_party": false,
    "is_groom": false,
    "is_bride": false,
    "inviter": "Germaine",
    "latitude": "41.562172",
    "longitude": "-81.455024"
  },
  {
    "name": "Julie McClave",
    "attended": true,
    "is_officiant": false,
    "in_wedding_party": false,
    "is_groom": false,
    "is_bride": false,
    "inviter": "Germaine",
    "latitude": "41.562172",
    "longitude": "-81.455024"
  },
  {
    "name": "Mackenzie McClave",
    "attended": true,
    "is_officiant": false,
    "in_wedding_party": false,
    "is_groom": false,
    "is_bride": false,
    "inviter": "Germaine",
    "latitude": "41.562172",
    "longitude": "-81.455024"
  },
  {
    "name": "Ellie McClave",
    "attended": true,
    "is_officiant": false,
    "in_wedding_party": false,
    "is_groom": false,
    "is_bride": false,
    "inviter": "Germaine",
    "latitude": "41.562172",
    "longitude": "-81.455024"
  },
  {
    "name": "Logan McClave",
    "attended": true,
    "is_officiant": false,
    "in_wedding_party": false,
    "is_groom": false,
    "is_bride": false,
    "inviter": "Germaine",
    "latitude": "41.562172",
    "longitude": "-81.455024"
  },
  {
    "name": "John Elliott",
    "attended": false,
    "is_officiant": false,
    "in_wedding_party": false,
    "is_groom": false,
    "is_bride": false,
    "inviter": "Germaine",
    "latitude": "41.567419",
    "longitude": "-81.364011"
  },
  {
    "name": "Lauren Elliott",
    "attended": false,
    "is_officiant": false,
    "in_wedding_party": false,
    "is_groom": false,
    "is_bride": false,
    "inviter": "Germaine",
    "latitude": "41.567419",
    "longitude": "-81.364011"
  },
  {
    "name": "Lindsey Elliott",
    "attended": false,
    "is_officiant": false,
    "in_wedding_party": false,
    "is_groom": false,
    "is_bride": false,
    "inviter": "Germaine",
    "latitude": "41.567419",
    "longitude": "-81.364011"
  },
  {
    "name": "Johnny Elliott",
    "attended": false,
    "is_officiant": false,
    "in_wedding_party": false,
    "is_groom": false,
    "is_bride": false,
    "inviter": "Germaine",
    "latitude": "41.567419",
    "longitude": "-81.364011"
  },
  {
    "name": "Gary McClave",
    "attended": false,
    "is_officiant": false,
    "in_wedding_party": false,
    "is_groom": false,
    "is_bride": false,
    "inviter": "Germaine",
    "latitude": "35.649074",
    "longitude": "-78.724406"
  },
  {
    "name": "Sandi McClave",
    "attended": false,
    "is_officiant": false,
    "in_wedding_party": false,
    "is_groom": false,
    "is_bride": false,
    "inviter": "Germaine",
    "latitude": "35.649074",
    "longitude": "-78.724406"
  },
  {
    "name": "Jim McClave",
    "attended": false,
    "is_officiant": false,
    "in_wedding_party": false,
    "is_groom": false,
    "is_bride": false,
    "inviter": "Germaine",
    "latitude": "38.333042",
    "longitude": "-77.742698"
  },
  {
    "name": "Mrs. Jim McClave",
    "attended": false,
    "is_officiant": false,
    "in_wedding_party": false,
    "is_groom": false,
    "is_bride": false,
    "inviter": "Germaine",
    "latitude": "38.333042",
    "longitude": "-77.742698"
  },
  {
    "name": "Peyton McClave",
    "attended": false,
    "is_officiant": false,
    "in_wedding_party": false,
    "is_groom": false,
    "is_bride": false,
    "inviter": "Germaine",
    "latitude": "38.333042",
    "longitude": "-77.742698"
  },
  {
    "name": "Steven McClave",
    "attended": false,
    "is_officiant": false,
    "in_wedding_party": false,
    "is_groom": false,
    "is_bride": false,
    "inviter": "Germaine",
    "latitude": "41.129048",
    "longitude": "-81.510644"
  },
  {
    "name": "Maggie McClave",
    "attended": false,
    "is_officiant": false,
    "in_wedding_party": false,
    "is_groom": false,
    "is_bride": false,
    "inviter": "Germaine",
    "latitude": "41.129048",
    "longitude": "-81.510644"
  },
  {
    "name": "Eileen Moran",
    "attended": false,
    "is_officiant": false,
    "in_wedding_party": false,
    "is_groom": false,
    "is_bride": false,
    "inviter": "Germaine",
    "latitude": "41.462537",
    "longitude": "-82.007593"
  },
  {
    "name": "Chris Essig",
    "attended": false,
    "is_officiant": false,
    "in_wedding_party": false,
    "is_groom": false,
    "is_bride": false,
    "inviter": "Germaine",
    "latitude": "41.450182",
    "longitude": "-81.9326"
  },
  {
    "name": "Mary Essig",
    "attended": false,
    "is_officiant": false,
    "in_wedding_party": false,
    "is_groom": false,
    "is_bride": false,
    "inviter": "Germaine",
    "latitude": "41.450182",
    "longitude": "-81.9326"
  },
  {
    "name": "John Wanhainen",
    "attended": false,
    "is_officiant": false,
    "in_wedding_party": false,
    "is_groom": false,
    "is_bride": false,
    "inviter": "Germaine",
    "latitude": "41.467344",
    "longitude": "-81.892602"
  },
  {
    "name": "Mrs. John Wanhainen",
    "attended": false,
    "is_officiant": false,
    "in_wedding_party": false,
    "is_groom": false,
    "is_bride": false,
    "inviter": "Germaine",
    "latitude": "41.467344",
    "longitude": "-81.892602"
  },
  {
    "name": "Chris Alibeckoff",
    "attended": false,
    "is_officiant": false,
    "in_wedding_party": false,
    "is_groom": false,
    "is_bride": false,
    "inviter": "Germaine",
    "latitude": "41.489092",
    "longitude": "-81.838891"
  },
  {
    "name": "Dominique Alibeckoff",
    "attended": false,
    "is_officiant": false,
    "in_wedding_party": false,
    "is_groom": false,
    "is_bride": false,
    "inviter": "Germaine",
    "latitude": "41.489092",
    "longitude": "-81.838891"
  },
  {
    "name": "Rick Lehtinen",
    "attended": false,
    "is_officiant": false,
    "in_wedding_party": false,
    "is_groom": false,
    "is_bride": false,
    "inviter": "Germaine",
    "latitude": "40.810283",
    "longitude": "-81.94282"
  },
  {
    "name": "Marcy Campbell",
    "attended": false,
    "is_officiant": false,
    "in_wedding_party": false,
    "is_groom": false,
    "is_bride": false,
    "inviter": "Germaine",
    "latitude": "40.810283",
    "longitude": "-81.94282"
  },
  {
    "name": "Whitaker Campbell-Lehtinen",
    "attended": false,
    "is_officiant": false,
    "in_wedding_party": false,
    "is_groom": false,
    "is_bride": false,
    "inviter": "Germaine",
    "latitude": "40.810283",
    "longitude": "-81.94282"
  },
  {
    "name": "Lily Campbell-Lehtinen",
    "attended": false,
    "is_officiant": false,
    "in_wedding_party": false,
    "is_groom": false,
    "is_bride": false,
    "inviter": "Germaine",
    "latitude": "40.810283",
    "longitude": "-81.94282"
  },
  {
    "name": "Jeff Roche",
    "attended": false,
    "is_officiant": false,
    "in_wedding_party": false,
    "is_groom": false,
    "is_bride": false,
    "inviter": "Germaine",
    "latitude": "40.810317",
    "longitude": "-81.943171"
  },
  {
    "name": "Mrs. Jeff Roche",
    "attended": false,
    "is_officiant": false,
    "in_wedding_party": false,
    "is_groom": false,
    "is_bride": false,
    "inviter": "Germaine",
    "latitude": "40.810317",
    "longitude": "-81.943171"
  },
  {
    "name": "Dale Jarvis",
    "attended": false,
    "is_officiant": false,
    "in_wedding_party": false,
    "is_groom": false,
    "is_bride": false,
    "inviter": "Germaine",
    "latitude": "40.810072",
    "longitude": "-81.94257"
  },
  {
    "name": "Janet Jarvis",
    "attended": false,
    "is_officiant": false,
    "in_wedding_party": false,
    "is_groom": false,
    "is_bride": false,
    "inviter": "Germaine",
    "latitude": "40.810072",
    "longitude": "-81.94257"
  },
  {
    "name": "The McCusker-Johnson Family",
    "attended": false,
    "is_officiant": false,
    "in_wedding_party": false,
    "is_groom": false,
    "is_bride": false,
    "inviter": "Germaine",
    "latitude": "40.810071",
    "longitude": "-81.942677"
  },
  {
    "name": "Jim Pyers",
    "attended": false,
    "is_officiant": false,
    "in_wedding_party": false,
    "is_groom": false,
    "is_bride": false,
    "inviter": "Germaine",
    "latitude": "40.810103",
    "longitude": "-81.942878"
  },
  {
    "name": "Mrs. Jim Pyers",
    "attended": false,
    "is_officiant": false,
    "in_wedding_party": false,
    "is_groom": false,
    "is_bride": false,
    "inviter": "Germaine",
    "latitude": "40.810103",
    "longitude": "-81.942878"
  },
  {
    "name": "Jorge Scheirer",
    "attended": false,
    "is_officiant": false,
    "in_wedding_party": false,
    "is_groom": false,
    "is_bride": false,
    "inviter": "Germaine",
    "latitude": "40.306257",
    "longitude": "-75.841368"
  },
  {
    "name": "Tracy Scheirer",
    "attended": false,
    "is_officiant": false,
    "in_wedding_party": false,
    "is_groom": false,
    "is_bride": false,
    "inviter": "Germaine",
    "latitude": "40.306257",
    "longitude": "-75.841368"
  },
  {
    "name": "The Sterling Family",
    "attended": false,
    "is_officiant": false,
    "in_wedding_party": false,
    "is_groom": false,
    "is_bride": false,
    "inviter": "Germaine",
    "latitude": "35.985783",
    "longitude": "-86.789812"
  },
  {
    "name": "Greg Runser",
    "attended": false,
    "is_officiant": false,
    "in_wedding_party": false,
    "is_groom": false,
    "is_bride": false,
    "inviter": "Germaine",
    "latitude": "40.021158",
    "longitude": "-83.18109"
  },
  {
    "name": "Mrs. Greg Runser",
    "attended": false,
    "is_officiant": false,
    "in_wedding_party": false,
    "is_groom": false,
    "is_bride": false,
    "inviter": "Germaine",
    "latitude": "40.021158",
    "longitude": "-83.18109"
  },
  {
    "name": "Jeff Peterson",
    "attended": false,
    "is_officiant": false,
    "in_wedding_party": false,
    "is_groom": false,
    "is_bride": false,
    "inviter": "Germaine",
    "latitude": "48.25428",
    "longitude": "-101.420182"
  },
  {
    "name": "Diana Peterson",
    "attended": false,
    "is_officiant": false,
    "in_wedding_party": false,
    "is_groom": false,
    "is_bride": false,
    "inviter": "Germaine",
    "latitude": "48.25428",
    "longitude": "-101.420182"
  },
  {
    "name": "Rhett Weaver",
    "attended": false,
    "is_officiant": false,
    "in_wedding_party": false,
    "is_groom": false,
    "is_bride": false,
    "inviter": "Germaine",
    "latitude": "34.653225",
    "longitude": "-83.563859"
  },
  {
    "name": "Tammy Weaver",
    "attended": false,
    "is_officiant": false,
    "in_wedding_party": false,
    "is_groom": false,
    "is_bride": false,
    "inviter": "Germaine",
    "latitude": "34.653225",
    "longitude": "-83.563859"
  },
  {
    "name": "Leslie Weaver",
    "attended": false,
    "is_officiant": false,
    "in_wedding_party": false,
    "is_groom": false,
    "is_bride": false,
    "inviter": "Germaine",
    "latitude": "36.174426",
    "longitude": "-86.740369"
  },
  {
    "name": "Manuel Steffas",
    "attended": false,
    "is_officiant": false,
    "in_wedding_party": false,
    "is_groom": false,
    "is_bride": false,
    "inviter": "Germaine",
    "latitude": "41.455551",
    "longitude": "-81.939381"
  },
  {
    "name": "Maggie Steffas",
    "attended": false,
    "is_officiant": false,
    "in_wedding_party": false,
    "is_groom": false,
    "is_bride": false,
    "inviter": "Germaine",
    "latitude": "41.455551",
    "longitude": "-81.939381"
  },
  {
    "name": "Cindy McArdle",
    "attended": false,
    "is_officiant": false,
    "in_wedding_party": false,
    "is_groom": false,
    "is_bride": false,
    "inviter": "Germaine",
    "latitude": "41.456043",
    "longitude": "-81.966038"
  },
  {
    "name": "Kent Murphy",
    "attended": false,
    "is_officiant": false,
    "in_wedding_party": false,
    "is_groom": false,
    "is_bride": false,
    "inviter": "Germaine",
    "latitude": "40.810119",
    "longitude": "-81.943024"
  },
  {
    "name": "Joyce Murphy",
    "attended": false,
    "is_officiant": false,
    "in_wedding_party": false,
    "is_groom": false,
    "is_bride": false,
    "inviter": "Germaine",
    "latitude": "40.810119",
    "longitude": "-81.943024"
  },
  {
    "name": "Rose Marie Baab",
    "attended": false,
    "is_officiant": false,
    "in_wedding_party": false,
    "is_groom": false,
    "is_bride": false,
    "inviter": "Germaine",
    "latitude": "40.809867",
    "longitude": "-81.943798"
  },
  {
    "name": "Matthew Bednarczyk",
    "attended": false,
    "is_officiant": false,
    "in_wedding_party": false,
    "is_groom": false,
    "is_bride": false,
    "inviter": "Germaine",
    "latitude": "42.506646",
    "longitude": "-83.187314"
  },
  {
    "name": "Donna Bednarczyk",
    "attended": false,
    "is_officiant": false,
    "in_wedding_party": false,
    "is_groom": false,
    "is_bride": false,
    "inviter": "Germaine",
    "latitude": "42.506646",
    "longitude": "-83.187314"
  },
  {
    "name": "Roger Blake",
    "attended": false,
    "is_officiant": false,
    "in_wedding_party": false,
    "is_groom": false,
    "is_bride": false,
    "inviter": "Germaine",
    "latitude": "42.492168",
    "longitude": "-83.167306"
  },
  {
    "name": "Jen Blake",
    "attended": false,
    "is_officiant": false,
    "in_wedding_party": false,
    "is_groom": false,
    "is_bride": false,
    "inviter": "Germaine",
    "latitude": "42.492168",
    "longitude": "-83.167306"
  },
  {
    "name": "Kevin Brener",
    "attended": false,
    "is_officiant": false,
    "in_wedding_party": false,
    "is_groom": false,
    "is_bride": false,
    "inviter": "Germaine",
    "latitude": "38.99499",
    "longitude": "-77.584997"
  },
  {
    "name": "Jennifer Brener",
    "attended": false,
    "is_officiant": false,
    "in_wedding_party": false,
    "is_groom": false,
    "is_bride": false,
    "inviter": "Germaine",
    "latitude": "38.99499",
    "longitude": "-77.584997"
  },
  {
    "name": "Kendall Brener",
    "attended": false,
    "is_officiant": false,
    "in_wedding_party": false,
    "is_groom": false,
    "is_bride": false,
    "inviter": "Germaine",
    "latitude": "38.99499",
    "longitude": "-77.584997"
  },
  {
    "name": "Kayleigh Brener",
    "attended": false,
    "is_officiant": false,
    "in_wedding_party": false,
    "is_groom": false,
    "is_bride": false,
    "inviter": "Germaine",
    "latitude": "38.99499",
    "longitude": "-77.584997"
  },
  {
    "name": "Robert Brus",
    "attended": false,
    "is_officiant": false,
    "in_wedding_party": false,
    "is_groom": false,
    "is_bride": false,
    "inviter": "Germaine",
    "latitude": "42.496843",
    "longitude": "-83.179307"
  },
  {
    "name": "Diane Brus",
    "attended": false,
    "is_officiant": false,
    "in_wedding_party": false,
    "is_groom": false,
    "is_bride": false,
    "inviter": "Germaine",
    "latitude": "42.496843",
    "longitude": "-83.179307"
  },
  {
    "name": "Linda Conway",
    "attended": false,
    "is_officiant": false,
    "in_wedding_party": false,
    "is_groom": false,
    "is_bride": false,
    "inviter": "Germaine",
    "latitude": "39.924151",
    "longitude": "-74.149532"
  },
  {
    "name": "Henry Cook",
    "attended": false,
    "is_officiant": false,
    "in_wedding_party": false,
    "is_groom": false,
    "is_bride": false,
    "inviter": "Germaine",
    "latitude": "35.413615",
    "longitude": "-80.896896"
  },
  {
    "name": "Susan Cook",
    "attended": false,
    "is_officiant": false,
    "in_wedding_party": false,
    "is_groom": false,
    "is_bride": false,
    "inviter": "Germaine",
    "latitude": "35.413615",
    "longitude": "-80.896896"
  },
  {
    "name": "Gabrielle Gubernat",
    "attended": false,
    "is_officiant": false,
    "in_wedding_party": false,
    "is_groom": false,
    "is_bride": false,
    "inviter": "Germaine",
    "latitude": "40.707876",
    "longitude": "-74.654131"
  },
  {
    "name": "Peter Costales",
    "attended": false,
    "is_officiant": false,
    "in_wedding_party": false,
    "is_groom": false,
    "is_bride": false,
    "inviter": "Germaine",
    "latitude": "40.707876",
    "longitude": "-74.654131"
  },
  {
    "name": "Peter DeMarois",
    "attended": false,
    "is_officiant": false,
    "in_wedding_party": false,
    "is_groom": false,
    "is_bride": false,
    "inviter": "Germaine",
    "latitude": "42.572941",
    "longitude": "-83.196501"
  },
  {
    "name": "Amy DeMarois",
    "attended": false,
    "is_officiant": false,
    "in_wedding_party": false,
    "is_groom": false,
    "is_bride": false,
    "inviter": "Germaine",
    "latitude": "42.572941",
    "longitude": "-83.196501"
  },
  {
    "name": "Christine Germaine",
    "attended": false,
    "is_officiant": false,
    "in_wedding_party": false,
    "is_groom": false,
    "is_bride": false,
    "inviter": "Germaine",
    "latitude": "35.90718",
    "longitude": "-78.991359"
  },
  {
    "name": "David Germaine",
    "attended": false,
    "is_officiant": false,
    "in_wedding_party": false,
    "is_groom": false,
    "is_bride": false,
    "inviter": "Germaine",
    "latitude": "42.341952",
    "longitude": "-83.409965"
  },
  {
    "name": "Frank Gubernat",
    "attended": false,
    "is_officiant": false,
    "in_wedding_party": false,
    "is_groom": false,
    "is_bride": false,
    "inviter": "Germaine",
    "latitude": "40.661899",
    "longitude": "-74.54301"
  },
  {
    "name": "Blair Harrold",
    "attended": false,
    "is_officiant": false,
    "in_wedding_party": false,
    "is_groom": false,
    "is_bride": false,
    "inviter": "Germaine",
    "latitude": "35.968721",
    "longitude": "-77.857901"
  },
  {
    "name": "Alice Harrold",
    "attended": false,
    "is_officiant": false,
    "in_wedding_party": false,
    "is_groom": false,
    "is_bride": false,
    "inviter": "Germaine",
    "latitude": "35.968721",
    "longitude": "-77.857901"
  },
  {
    "name": "Robert Holbrook",
    "attended": false,
    "is_officiant": false,
    "in_wedding_party": false,
    "is_groom": false,
    "is_bride": false,
    "inviter": "Germaine",
    "latitude": "35.688884",
    "longitude": "-78.441918"
  },
  {
    "name": "Mrs. Robert Holbrook",
    "attended": false,
    "is_officiant": false,
    "in_wedding_party": false,
    "is_groom": false,
    "is_bride": false,
    "inviter": "Germaine",
    "latitude": "35.688884",
    "longitude": "-78.441918"
  },
  {
    "name": "Harry Holloway",
    "attended": false,
    "is_officiant": false,
    "in_wedding_party": false,
    "is_groom": false,
    "is_bride": false,
    "inviter": "Germaine",
    "latitude": "39.163293",
    "longitude": "-78.135485"
  },
  {
    "name": "Mrs. Harry Holloway",
    "attended": false,
    "is_officiant": false,
    "in_wedding_party": false,
    "is_groom": false,
    "is_bride": false,
    "inviter": "Germaine",
    "latitude": "39.163293",
    "longitude": "-78.135485"
  },
  {
    "name": "Fred Hrinuk",
    "attended": false,
    "is_officiant": false,
    "in_wedding_party": false,
    "is_groom": false,
    "is_bride": false,
    "inviter": "Germaine",
    "latitude": "40.715111",
    "longitude": "-74.316927"
  },
  {
    "name": "Mrs. Fred Hrinuk",
    "attended": false,
    "is_officiant": false,
    "in_wedding_party": false,
    "is_groom": false,
    "is_bride": false,
    "inviter": "Germaine",
    "latitude": "40.715111",
    "longitude": "-74.316927"
  },
  {
    "name": "Arlene Lofgren",
    "attended": false,
    "is_officiant": false,
    "in_wedding_party": false,
    "is_groom": false,
    "is_bride": false,
    "inviter": "Germaine",
    "latitude": "39.045236",
    "longitude": "-77.46097"
  },
  {
    "name": "Courtney Lofgren",
    "attended": false,
    "is_officiant": false,
    "in_wedding_party": false,
    "is_groom": false,
    "is_bride": false,
    "inviter": "Germaine",
    "latitude": "38.884812",
    "longitude": "-77.117943"
  },
  {
    "name": "Daniel Moran",
    "attended": false,
    "is_officiant": false,
    "in_wedding_party": false,
    "is_groom": false,
    "is_bride": false,
    "inviter": "Germaine",
    "latitude": "42.496606",
    "longitude": "-83.192814"
  },
  {
    "name": "Mrs. Daniel Moran",
    "attended": false,
    "is_officiant": false,
    "in_wedding_party": false,
    "is_groom": false,
    "is_bride": false,
    "inviter": "Germaine",
    "latitude": "42.496606",
    "longitude": "-83.192814"
  },
  {
    "name": "JuanLuis Periche-Feliz and Family",
    "attended": false,
    "is_officiant": false,
    "in_wedding_party": false,
    "is_groom": false,
    "is_bride": false,
    "inviter": "Germaine",
    "latitude": "35.069581",
    "longitude": "-80.791429"
  },
  {
    "name": "Marianne Quigley",
    "attended": false,
    "is_officiant": false,
    "in_wedding_party": false,
    "is_groom": false,
    "is_bride": false,
    "inviter": "Germaine",
    "latitude": "42.629474",
    "longitude": "-83.223356"
  },
  {
    "name": "David Dubay",
    "attended": false,
    "is_officiant": false,
    "in_wedding_party": false,
    "is_groom": false,
    "is_bride": false,
    "inviter": "Germaine",
    "latitude": "42.629474",
    "longitude": "-83.223356"
  },
  {
    "name": "Scott Reese",
    "attended": false,
    "is_officiant": false,
    "in_wedding_party": false,
    "is_groom": false,
    "is_bride": false,
    "inviter": "Germaine",
    "latitude": "36.234483",
    "longitude": "-81.748435"
  },
  {
    "name": "Kim Reese",
    "attended": false,
    "is_officiant": false,
    "in_wedding_party": false,
    "is_groom": false,
    "is_bride": false,
    "inviter": "Germaine",
    "latitude": "36.234483",
    "longitude": "-81.748435"
  },
  {
    "name": "Catherine Ronan",
    "attended": false,
    "is_officiant": false,
    "in_wedding_party": false,
    "is_groom": false,
    "is_bride": false,
    "inviter": "Germaine",
    "latitude": "42.461488",
    "longitude": "-82.955835"
  },
  {
    "name": "Timothy Saunders",
    "attended": false,
    "is_officiant": false,
    "in_wedding_party": false,
    "is_groom": false,
    "is_bride": false,
    "inviter": "Germaine",
    "latitude": "42.497652",
    "longitude": "-83.201952"
  },
  {
    "name": "Lori Saunders",
    "attended": false,
    "is_officiant": false,
    "in_wedding_party": false,
    "is_groom": false,
    "is_bride": false,
    "inviter": "Germaine",
    "latitude": "42.497652",
    "longitude": "-83.201952"
  },
  {
    "name": "Elizabeth Spainhour",
    "attended": false,
    "is_officiant": false,
    "in_wedding_party": false,
    "is_groom": false,
    "is_bride": false,
    "inviter": "Germaine",
    "latitude": "36.142802",
    "longitude": "-79.86981"
  },
  {
    "name": "Stacy Street",
    "attended": false,
    "is_officiant": false,
    "in_wedding_party": false,
    "is_groom": false,
    "is_bride": false,
    "inviter": "Germaine",
    "latitude": "36.142802",
    "longitude": "-79.86981"
  },
  {
    "name": "Gregory Swerdlow",
    "attended": false,
    "is_officiant": false,
    "in_wedding_party": false,
    "is_groom": false,
    "is_bride": false,
    "inviter": "Germaine",
    "latitude": "40.426256",
    "longitude": "-74.649346"
  },
  {
    "name": "Adrienne Swerdlow",
    "attended": false,
    "is_officiant": false,
    "in_wedding_party": false,
    "is_groom": false,
    "is_bride": false,
    "inviter": "Germaine",
    "latitude": "40.426256",
    "longitude": "-74.649346"
  },
  {
    "name": "Alexis Swerdlow",
    "attended": false,
    "is_officiant": false,
    "in_wedding_party": false,
    "is_groom": false,
    "is_bride": false,
    "inviter": "Germaine",
    "latitude": "40.426256",
    "longitude": "-74.649346"
  },
  {
    "name": "Justin Swerdlow",
    "attended": false,
    "is_officiant": false,
    "in_wedding_party": false,
    "is_groom": false,
    "is_bride": false,
    "inviter": "Germaine",
    "latitude": "40.426256",
    "longitude": "-74.649346"
  },
  {
    "name": "Jeffrey Thomasson",
    "attended": false,
    "is_officiant": false,
    "in_wedding_party": false,
    "is_groom": false,
    "is_bride": false,
    "inviter": "Germaine",
    "latitude": "36.133484",
    "longitude": "-78.961754"
  },
  {
    "name": "Beth Thomasson",
    "attended": false,
    "is_officiant": false,
    "in_wedding_party": false,
    "is_groom": false,
    "is_bride": false,
    "inviter": "Germaine",
    "latitude": "36.133484",
    "longitude": "-78.961754"
  },
  {
    "name": "Flo Todd",
    "attended": false,
    "is_officiant": false,
    "in_wedding_party": false,
    "is_groom": false,
    "is_bride": false,
    "inviter": "Germaine",
    "latitude": "27.645144",
    "longitude": "-80.481026"
  },
  {
    "name": "Barbara Wujciak",
    "attended": false,
    "is_officiant": false,
    "in_wedding_party": false,
    "is_groom": false,
    "is_bride": false,
    "inviter": "Germaine",
    "latitude": "35.91855",
    "longitude": "-79.020357"
  },
  {
    "name": "Edwin Wujciak",
    "attended": false,
    "is_officiant": false,
    "in_wedding_party": false,
    "is_groom": false,
    "is_bride": false,
    "inviter": "Germaine",
    "latitude": "26.605269",
    "longitude": "-80.157254"
  },
  {
    "name": "Alice Wujciak",
    "attended": false,
    "is_officiant": false,
    "in_wedding_party": false,
    "is_groom": false,
    "is_bride": false,
    "inviter": "Germaine",
    "latitude": "26.605269",
    "longitude": "-80.157254"
  },
  {
    "name": "James Wujciak",
    "attended": false,
    "is_officiant": false,
    "in_wedding_party": false,
    "is_groom": false,
    "is_bride": false,
    "inviter": "Germaine",
    "latitude": "40.921692",
    "longitude": "-74.246492"
  },
  {
    "name": "Linda Wujciak",
    "attended": false,
    "is_officiant": false,
    "in_wedding_party": false,
    "is_groom": false,
    "is_bride": false,
    "inviter": "Germaine",
    "latitude": "35.148801",
    "longitude": "-80.765606"
  },
  {
    "name": "Martine Gubernat",
    "attended": false,
    "is_officiant": false,
    "in_wedding_party": false,
    "is_groom": false,
    "is_bride": false,
    "inviter": "Germaine",
    "latitude": "40.603666",
    "longitude": "-74.616254"
  },
  {
    "name": "Ms. Susan A. Zega",
    "attended": false,
    "is_officiant": false,
    "in_wedding_party": false,
    "is_groom": false,
    "is_bride": false,
    "inviter": "Germaine",
    "latitude": "40.603666",
    "longitude": "-74.616254"
  },
  {
    "name": "Tom McKarns",
    "attended": false,
    "is_officiant": false,
    "in_wedding_party": false,
    "is_groom": false,
    "is_bride": false,
    "inviter": "Germaine",
    "latitude": "42.223011",
    "longitude": "-83.772993"
  },
  {
    "name": "Lisa McKarns",
    "attended": false,
    "is_officiant": false,
    "in_wedding_party": false,
    "is_groom": false,
    "is_bride": false,
    "inviter": "Germaine",
    "latitude": "42.223011",
    "longitude": "-83.772993"
  },
  {
    "name": "Andrew Badger",
    "attended": false,
    "is_officiant": false,
    "in_wedding_party": false,
    "is_groom": false,
    "is_bride": false,
    "inviter": "Germaine",
    "latitude": "32.845952",
    "longitude": "-97.250075"
  },
  {
    "name": "Jake Boca",
    "attended": false,
    "is_officiant": false,
    "in_wedding_party": false,
    "is_groom": false,
    "is_bride": false,
    "inviter": "Germaine",
    "latitude": "40.459991",
    "longitude": "-79.948811"
  },
  {
    "name": "Derrick Callahan",
    "attended": false,
    "is_officiant": false,
    "in_wedding_party": false,
    "is_groom": false,
    "is_bride": false,
    "inviter": "Germaine",
    "latitude": "40.459991",
    "longitude": "-79.948811"
  },
  {
    "name": "Joey Smerud",
    "attended": false,
    "is_officiant": false,
    "in_wedding_party": false,
    "is_groom": false,
    "is_bride": false,
    "inviter": "Germaine",
    "latitude": "43.804889",
    "longitude": "-91.224185"
  },
  {
    "name": "Jenni Smerud",
    "attended": false,
    "is_officiant": false,
    "in_wedding_party": false,
    "is_groom": false,
    "is_bride": false,
    "inviter": "Germaine",
    "latitude": "43.804889",
    "longitude": "-91.224185"
  },
  {
    "name": "Alex Chabraja",
    "attended": false,
    "is_officiant": false,
    "in_wedding_party": false,
    "is_groom": false,
    "is_bride": false,
    "inviter": "Germaine",
    "latitude": "30.320725",
    "longitude": "-97.736477"
  },
  {
    "name": "Gabi Berrios",
    "attended": false,
    "is_officiant": false,
    "in_wedding_party": false,
    "is_groom": false,
    "is_bride": false,
    "inviter": "Germaine",
    "latitude": "30.320725",
    "longitude": "-97.736477"
  },
  {
    "name": "James Coddington",
    "attended": false,
    "is_officiant": false,
    "in_wedding_party": false,
    "is_groom": false,
    "is_bride": false,
    "inviter": "Germaine",
    "latitude": "39.403528",
    "longitude": "-76.956267"
  },
  {
    "name": "Gwen Coddington",
    "attended": false,
    "is_officiant": false,
    "in_wedding_party": false,
    "is_groom": false,
    "is_bride": false,
    "inviter": "Germaine",
    "latitude": "39.403528",
    "longitude": "-76.956267"
  },
  {
    "name": "Emily Corwin",
    "attended": false,
    "is_officiant": false,
    "in_wedding_party": false,
    "is_groom": false,
    "is_bride": false,
    "inviter": "Germaine",
    "latitude": "42.546329",
    "longitude": "-83.19802"
  },
  {
    "name": "Joe Thornton",
    "attended": false,
    "is_officiant": false,
    "in_wedding_party": false,
    "is_groom": false,
    "is_bride": false,
    "inviter": "Germaine",
    "latitude": "42.546329",
    "longitude": "-83.19802"
  },
  {
    "name": "Jacob Duchan",
    "attended": false,
    "is_officiant": false,
    "in_wedding_party": false,
    "is_groom": false,
    "is_bride": false,
    "inviter": "Germaine",
    "latitude": "42.481369",
    "longitude": "-83.178658"
  },
  {
    "name": "Aimon Dwan",
    "attended": false,
    "is_officiant": false,
    "in_wedding_party": false,
    "is_groom": false,
    "is_bride": false,
    "inviter": "Germaine",
    "latitude": "44.937071",
    "longitude": "-93.141799"
  },
  {
    "name": "Rafa Auqui",
    "attended": false,
    "is_officiant": false,
    "in_wedding_party": false,
    "is_groom": false,
    "is_bride": false,
    "inviter": "Germaine",
    "latitude": "44.937071",
    "longitude": "-93.141799"
  },
  {
    "name": "Anna Easterday",
    "attended": false,
    "is_officiant": false,
    "in_wedding_party": false,
    "is_groom": false,
    "is_bride": false,
    "inviter": "Germaine",
    "latitude": "41.094632",
    "longitude": "-83.177962"
  },
  {
    "name": "Melanie Fraser",
    "attended": false,
    "is_officiant": false,
    "in_wedding_party": false,
    "is_groom": false,
    "is_bride": false,
    "inviter": "Germaine",
    "latitude": "42.447629",
    "longitude": "-76.49582"
  },
  {
    "name": "Tim Fraser",
    "attended": false,
    "is_officiant": false,
    "in_wedding_party": false,
    "is_groom": false,
    "is_bride": false,
    "inviter": "Germaine",
    "latitude": "42.447629",
    "longitude": "-76.49582"
  },
  {
    "name": "Umberto Gordon",
    "attended": false,
    "is_officiant": false,
    "in_wedding_party": false,
    "is_groom": false,
    "is_bride": false,
    "inviter": "Germaine",
    "latitude": "38.362899",
    "longitude": "-76.397508"
  },
  {
    "name": "Colleen Gordon",
    "attended": false,
    "is_officiant": false,
    "in_wedding_party": false,
    "is_groom": false,
    "is_bride": false,
    "inviter": "Germaine",
    "latitude": "38.362899",
    "longitude": "-76.397508"
  },
  {
    "name": "Fiona Gordon",
    "attended": false,
    "is_officiant": false,
    "in_wedding_party": false,
    "is_groom": false,
    "is_bride": false,
    "inviter": "Germaine",
    "latitude": "38.362899",
    "longitude": "-76.397508"
  },
  {
    "name": "Ed Hebb",
    "attended": false,
    "is_officiant": false,
    "in_wedding_party": false,
    "is_groom": false,
    "is_bride": false,
    "inviter": "Germaine",
    "latitude": "40.784741",
    "longitude": "-81.958041"
  },
  {
    "name": "Linda Hebb",
    "attended": false,
    "is_officiant": false,
    "in_wedding_party": false,
    "is_groom": false,
    "is_bride": false,
    "inviter": "Germaine",
    "latitude": "40.784741",
    "longitude": "-81.958041"
  },
  {
    "name": "Jeremy Hernandez-Hermann",
    "attended": false,
    "is_officiant": false,
    "in_wedding_party": false,
    "is_groom": false,
    "is_bride": false,
    "inviter": "Germaine",
    "latitude": "42.289176",
    "longitude": "-85.626543"
  },
  {
    "name": "Dalia Hernandez-Hermann",
    "attended": false,
    "is_officiant": false,
    "in_wedding_party": false,
    "is_groom": false,
    "is_bride": false,
    "inviter": "Germaine",
    "latitude": "42.289176",
    "longitude": "-85.626543"
  },
  {
    "name": "Kirstin Holm",
    "attended": false,
    "is_officiant": false,
    "in_wedding_party": false,
    "is_groom": false,
    "is_bride": false,
    "inviter": "Germaine",
    "latitude": "44.944439",
    "longitude": "-93.294867"
  },
  {
    "name": "Adrienne James",
    "attended": false,
    "is_officiant": false,
    "in_wedding_party": false,
    "is_groom": false,
    "is_bride": false,
    "inviter": "Germaine",
    "latitude": "41.395957",
    "longitude": "-82.657427"
  },
  {
    "name": "Kelsey Jandrey",
    "attended": false,
    "is_officiant": false,
    "in_wedding_party": false,
    "is_groom": false,
    "is_bride": false,
    "inviter": "Germaine",
    "latitude": "43.138828",
    "longitude": "-87.911931"
  },
  {
    "name": "Emily Lanzola Mariner",
    "attended": false,
    "is_officiant": false,
    "in_wedding_party": false,
    "is_groom": false,
    "is_bride": false,
    "inviter": "Germaine",
    "latitude": "41.36023",
    "longitude": "-82.045915"
  },
  {
    "name": "Charles Kammer",
    "attended": false,
    "is_officiant": false,
    "in_wedding_party": false,
    "is_groom": false,
    "is_bride": false,
    "inviter": "Germaine",
    "latitude": "40.830699",
    "longitude": "-81.895377"
  },
  {
    "name": "Ryan Kish",
    "attended": false,
    "is_officiant": false,
    "in_wedding_party": false,
    "is_groom": false,
    "is_bride": false,
    "inviter": "Germaine",
    "latitude": "40.473002",
    "longitude": "-79.924684"
  },
  {
    "name": "Taylor Thorp",
    "attended": false,
    "is_officiant": false,
    "in_wedding_party": false,
    "is_groom": false,
    "is_bride": false,
    "inviter": "Germaine",
    "latitude": "40.473002",
    "longitude": "-79.924684"
  },
  {
    "name": "Susan Kuecker",
    "attended": false,
    "is_officiant": false,
    "in_wedding_party": false,
    "is_groom": false,
    "is_bride": false,
    "inviter": "Germaine",
    "latitude": "44.533998",
    "longitude": "-71.998391"
  },
  {
    "name": "Jim Grahm",
    "attended": false,
    "is_officiant": false,
    "in_wedding_party": false,
    "is_groom": false,
    "is_bride": false,
    "inviter": "Germaine",
    "latitude": "44.533998",
    "longitude": "-71.998391"
  },
  {
    "name": "Grace Kramer",
    "attended": false,
    "is_officiant": false,
    "in_wedding_party": false,
    "is_groom": false,
    "is_bride": false,
    "inviter": "Germaine",
    "latitude": "44.956737",
    "longitude": "-93.283865"
  },
  {
    "name": "Max Kramer",
    "attended": false,
    "is_officiant": false,
    "in_wedding_party": false,
    "is_groom": false,
    "is_bride": false,
    "inviter": "Germaine",
    "latitude": "44.956737",
    "longitude": "-93.283865"
  },
  {
    "name": "Blake Larson",
    "attended": false,
    "is_officiant": false,
    "in_wedding_party": false,
    "is_groom": false,
    "is_bride": false,
    "inviter": "Germaine",
    "latitude": "41.476022",
    "longitude": "-81.510945"
  },
  {
    "name": "Miles Larson",
    "attended": false,
    "is_officiant": false,
    "in_wedding_party": false,
    "is_groom": false,
    "is_bride": false,
    "inviter": "Germaine",
    "latitude": "41.476022",
    "longitude": "-81.510945"
  },
  {
    "name": "Amy Larson",
    "attended": false,
    "is_officiant": false,
    "in_wedding_party": false,
    "is_groom": false,
    "is_bride": false,
    "inviter": "Germaine",
    "latitude": "41.476022",
    "longitude": "-81.510945"
  },
  {
    "name": "Matt Larson",
    "attended": false,
    "is_officiant": false,
    "in_wedding_party": false,
    "is_groom": false,
    "is_bride": false,
    "inviter": "Germaine",
    "latitude": "41.476022",
    "longitude": "-81.510945"
  },
  {
    "name": "Kati McArdle",
    "attended": false,
    "is_officiant": false,
    "in_wedding_party": false,
    "is_groom": false,
    "is_bride": false,
    "inviter": "Germaine",
    "latitude": "35.914176",
    "longitude": "-79.080394"
  },
  {
    "name": "Michael Jones",
    "attended": false,
    "is_officiant": false,
    "in_wedding_party": false,
    "is_groom": false,
    "is_bride": false,
    "inviter": "Germaine",
    "latitude": "35.914176",
    "longitude": "-79.080394"
  },
  {
    "name": "David McConnell",
    "attended": false,
    "is_officiant": false,
    "in_wedding_party": false,
    "is_groom": false,
    "is_bride": false,
    "inviter": "Germaine",
    "latitude": "40.843143",
    "longitude": "-81.971713"
  },
  {
    "name": "Cathy McConnell",
    "attended": false,
    "is_officiant": false,
    "in_wedding_party": false,
    "is_groom": false,
    "is_bride": false,
    "inviter": "Germaine",
    "latitude": "40.843143",
    "longitude": "-81.971713"
  },
  {
    "name": "Bri McIntyre",
    "attended": false,
    "is_officiant": false,
    "in_wedding_party": false,
    "is_groom": false,
    "is_bride": false,
    "inviter": "Germaine",
    "latitude": "40.819357",
    "longitude": "-81.368852"
  },
  {
    "name": "Shane McIntyre",
    "attended": false,
    "is_officiant": false,
    "in_wedding_party": false,
    "is_groom": false,
    "is_bride": false,
    "inviter": "Germaine",
    "latitude": "40.819357",
    "longitude": "-81.368852"
  },
  {
    "name": "Noelle McIntyre",
    "attended": false,
    "is_officiant": false,
    "in_wedding_party": false,
    "is_groom": false,
    "is_bride": false,
    "inviter": "Germaine",
    "latitude": "40.819357",
    "longitude": "-81.368852"
  },
  {
    "name": "Wes Myers",
    "attended": false,
    "is_officiant": false,
    "in_wedding_party": false,
    "is_groom": false,
    "is_bride": false,
    "inviter": "Germaine",
    "latitude": "40.187232",
    "longitude": "-85.804639"
  },
  {
    "name": "Jonell Myers",
    "attended": false,
    "is_officiant": false,
    "in_wedding_party": false,
    "is_groom": false,
    "is_bride": false,
    "inviter": "Germaine",
    "latitude": "40.187232",
    "longitude": "-85.804639"
  },
  {
    "name": "Keely Pearce",
    "attended": false,
    "is_officiant": false,
    "in_wedding_party": false,
    "is_groom": false,
    "is_bride": false,
    "inviter": "Germaine",
    "latitude": "39.714287",
    "longitude": "-82.593532"
  },
  {
    "name": "Bob Randall",
    "attended": false,
    "is_officiant": false,
    "in_wedding_party": false,
    "is_groom": false,
    "is_bride": false,
    "inviter": "Germaine",
    "latitude": "40.831847",
    "longitude": "-81.947456"
  },
  {
    "name": "Bobbie Randall",
    "attended": false,
    "is_officiant": false,
    "in_wedding_party": false,
    "is_groom": false,
    "is_bride": false,
    "inviter": "Germaine",
    "latitude": "40.831847",
    "longitude": "-81.947456"
  },
  {
    "name": "Ben Robertson",
    "attended": false,
    "is_officiant": false,
    "in_wedding_party": false,
    "is_groom": false,
    "is_bride": false,
    "inviter": "Germaine",
    "latitude": "43.174827",
    "longitude": "-73.061768"
  },
  {
    "name": "Alea Safier",
    "attended": false,
    "is_officiant": false,
    "in_wedding_party": false,
    "is_groom": false,
    "is_bride": false,
    "inviter": "Germaine",
    "latitude": "42.376977",
    "longitude": "-71.14965"
  },
  {
    "name": "David Freund",
    "attended": false,
    "is_officiant": false,
    "in_wedding_party": false,
    "is_groom": false,
    "is_bride": false,
    "inviter": "Germaine",
    "latitude": "42.376977",
    "longitude": "-71.14965"
  },
  {
    "name": "Kelsey Scott",
    "attended": false,
    "is_officiant": false,
    "in_wedding_party": false,
    "is_groom": false,
    "is_bride": false,
    "inviter": "Germaine",
    "latitude": "40.026996",
    "longitude": "-83.018517"
  },
  {
    "name": "Andy Patt",
    "attended": false,
    "is_officiant": false,
    "in_wedding_party": false,
    "is_groom": false,
    "is_bride": false,
    "inviter": "Germaine",
    "latitude": "40.026996",
    "longitude": "-83.018517"
  },
  {
    "name": "Edmund Shi",
    "attended": false,
    "is_officiant": false,
    "in_wedding_party": false,
    "is_groom": false,
    "is_bride": false,
    "inviter": "Germaine",
    "latitude": "40.89522",
    "longitude": "-81.116438"
  },
  {
    "name": "Kate Sickles",
    "attended": false,
    "is_officiant": false,
    "in_wedding_party": false,
    "is_groom": false,
    "is_bride": false,
    "inviter": "Germaine",
    "latitude": "42.220214",
    "longitude": "-83.775547"
  },
  {
    "name": "Michael Sickles",
    "attended": false,
    "is_officiant": false,
    "in_wedding_party": false,
    "is_groom": false,
    "is_bride": false,
    "inviter": "Germaine",
    "latitude": "42.220214",
    "longitude": "-83.775547"
  },
  {
    "name": "Eliza Sickles",
    "attended": false,
    "is_officiant": false,
    "in_wedding_party": false,
    "is_groom": false,
    "is_bride": false,
    "inviter": "Germaine",
    "latitude": "42.220214",
    "longitude": "-83.775547"
  },
  {
    "name": "Whitney Sims",
    "attended": false,
    "is_officiant": false,
    "in_wedding_party": false,
    "is_groom": false,
    "is_bride": false,
    "inviter": "Germaine",
    "latitude": "41.466132",
    "longitude": "-81.540702"
  },
  {
    "name": "Maria Steffas",
    "attended": false,
    "is_officiant": false,
    "in_wedding_party": false,
    "is_groom": false,
    "is_bride": false,
    "inviter": "Germaine",
    "latitude": "41.463629",
    "longitude": "-81.858075"
  },
  {
    "name": "Cindy Tran",
    "attended": false,
    "is_officiant": false,
    "in_wedding_party": false,
    "is_groom": false,
    "is_bride": false,
    "inviter": "Germaine",
    "latitude": "37.534154",
    "longitude": "-122.035414"
  },
  {
    "name": "Stephen Tryban",
    "attended": false,
    "is_officiant": false,
    "in_wedding_party": false,
    "is_groom": false,
    "is_bride": false,
    "inviter": "Germaine",
    "latitude": "43.59557",
    "longitude": "-84.760607"
  },
  {
    "name": "Brian Tucker",
    "attended": false,
    "is_officiant": false,
    "in_wedding_party": false,
    "is_groom": false,
    "is_bride": false,
    "inviter": "Germaine",
    "latitude": "36.120617",
    "longitude": "-115.067854"
  },
  {
    "name": "Elliott Valentine",
    "attended": false,
    "is_officiant": false,
    "in_wedding_party": false,
    "is_groom": false,
    "is_bride": false,
    "inviter": "Germaine",
    "latitude": "43.083665",
    "longitude": "-89.361001"
  },
  {
    "name": "Katelyn French",
    "attended": false,
    "is_officiant": false,
    "in_wedding_party": false,
    "is_groom": false,
    "is_bride": false,
    "inviter": "Germaine",
    "latitude": "43.083665",
    "longitude": "-89.361001"
  },
  {
    "name": "Alejandra Vargas",
    "attended": false,
    "is_officiant": false,
    "in_wedding_party": false,
    "is_groom": false,
    "is_bride": false,
    "inviter": "Germaine",
    "latitude": "33.402866",
    "longitude": "-90.890464"
  },
  {
    "name": "Amilcar Vargas",
    "attended": false,
    "is_officiant": false,
    "in_wedding_party": false,
    "is_groom": false,
    "is_bride": false,
    "inviter": "Germaine",
    "latitude": "33.402866",
    "longitude": "-90.890464"
  },
  {
    "name": "Dan Vedda",
    "attended": false,
    "is_officiant": false,
    "in_wedding_party": false,
    "is_groom": false,
    "is_bride": false,
    "inviter": "Germaine",
    "latitude": "41.339548",
    "longitude": "-81.905003"
  },
  {
    "name": "Steve Voelker",
    "attended": false,
    "is_officiant": false,
    "in_wedding_party": false,
    "is_groom": false,
    "is_bride": false,
    "inviter": "Germaine",
    "latitude": "40.828479",
    "longitude": "-80.25314"
  },
  {
    "name": "Samantha Voelker",
    "attended": false,
    "is_officiant": false,
    "in_wedding_party": false,
    "is_groom": false,
    "is_bride": false,
    "inviter": "Germaine",
    "latitude": "40.828479",
    "longitude": "-80.25314"
  },
  {
    "name": "Linda Morgan-Clement",
    "attended": true,
    "is_officiant": true,
    "in_wedding_party": true,
    "is_groom": false,
    "is_bride": false,
    "inviter": "Couple",
    "latitude": "44.284978",
    "longitude": "-88.408801"
  },
  {
    "name": "Mike Clement",
    "attended": false,
    "is_officiant": false,
    "in_wedding_party": false,
    "is_groom": false,
    "is_bride": false,
    "inviter": "Couple",
    "latitude": "44.284978",
    "longitude": "-88.408801"
  }
]
